[
  {
    "name": "ぽかぽからんど 泉龍温泉",
    "latitude": 36.4201895,
    "longitude": 136.468136,
    "features": [
      "天然温泉",
      "露天",
      "サウナ",
      "休憩所",
      "75台",
      "塩化"
    ],
    "spring_types": [
      "塩化"
    ]
  },
  {
    "name": "海浜あみだ湯",
    "latitude": 37.4396416,
    "longitude": 137.2735975,
    "features": [
      "露天",
      "サウナ",
      "休憩所",
      "35台"
    ],
    "spring_types": []
  },
  {
    "name": "ねぶた温泉 海遊 能登の庄",
    "latitude": 37.3997455,
    "longitude": 136.9403893,
    "features": [
      "天然温泉",
      "露天",
      "サウナ",
      "休憩所",
      "30台",
      "単純"
    ],
    "spring_types": [
      "単純"
    ]
  },
  {
    "name": "兼六温泉",
    "latitude": 36.56227,
    "longitude": 136.6716679,
    "features": [
      "天然温泉",
      "露天",
      "サウナ",
      "休憩所",
      "10台",
      "塩化",
      "炭酸"
    ],
    "spring_types": [
      "塩化",
      "炭酸"
    ]
  },
  {
    "name": "大桑おんま温泉 楽ちんの湯",
    "latitude": 36.536988,
    "longitude": 136.6751021,
    "features": [
      "天然温泉",
      "露天",
      "サウナ",
      "休憩所",
      "食事処",
      "170台",
      "塩化",
      "炭酸"
    ],
    "spring_types": [
      "塩化",
      "炭酸"
    ]
  },
  {
    "name": "さくら湯",
    "latitude": 36.405588,
    "longitude": 136.4515201,
    "features": [
      "天然温泉",
      "23台",
      "塩化",
      "炭酸"
    ],
    "spring_types": [
      "塩化",
      "炭酸"
    ]
  },
  {
    "name": "千代野温泉",
    "latitude": 36.5157618,
    "longitude": 136.5414199,
    "features": [
      "天然温泉",
      "露天",
      "サウナ",
      "休憩所",
      "44台",
      "塩化"
    ],
    "spring_types": [
      "塩化"
    ]
  },
  {
    "name": "瓢箪湯",
    "latitude": 36.5765188,
    "longitude": 136.6566649,
    "features": [
      "サウナ",
      "5台"
    ],
    "spring_types": []
  },
  {
    "name": "和倉温泉総湯",
    "latitude": 37.0889362,
    "longitude": 136.9164731,
    "features": [
      "天然温泉",
      "露天",
      "サウナ",
      "休憩所",
      "80台",
      "塩化"
    ],
    "spring_types": [
      "塩化"
    ]
  },
  {
    "name": "天然温泉 シェア金沢",
    "latitude": 36.5474133,
    "longitude": 136.6947313,
    "features": [
      "天然温泉",
      "露天",
      "休憩所",
      "食事処",
      "30台",
      "塩化",
      "炭酸"
    ],
    "spring_types": [
      "塩化",
      "炭酸"
    ]
  },
  {
    "name": "大和温泉",
    "latitude": 36.5765069,
    "longitude": 136.6648418,
    "features": [
      "天然温泉",
      "サウナ",
      "休憩所",
      "20台",
      "単純"
    ],
    "spring_types": [
      "単純"
    ]
  },
  {
    "name": "行善寺温泉 海の湯/山の湯",
    "latitude": 36.5262756,
    "longitude": 136.5516646,
    "features": [
      "天然温泉",
      "露天",
      "食事処",
      "80台",
      "塩化"
    ],
    "spring_types": [
      "塩化"
    ]
  },
  {
    "name": "有松温泉 れもん湯",
    "latitude": 36.5383821,
    "longitude": 136.6398749,
    "features": [
      "天然温泉",
      "サウナ",
      "50台",
      "塩化"
    ],
    "spring_types": [
      "塩化"
    ]
  },
  {
    "name": "松任海浜温泉 おつかりさま",
    "latitude": 36.5360048,
    "longitude": 136.5302919,
    "features": [
      "天然温泉",
      "露天",
      "サウナ",
      "休憩所",
      "食事処",
      "250台",
      "塩化"
    ],
    "spring_types": [
      "塩化"
    ]
  },
  {
    "name": "浅の川温泉 湯楽",
    "latitude": 36.49239840000001,
    "longitude": 136.7608579,
    "features": [
      "天然温泉",
      "露天",
      "サウナ",
      "休憩所",
      "食事処",
      "200台",
      "塩化",
      "硫酸"
    ],
    "spring_types": [
      "塩化",
      "硫酸"
    ]
  },
  {
    "name": "アパスパ金沢駅前",
    "latitude": 36.5776008,
    "longitude": 136.6466319,
    "features": [
      "露天",
      "サウナ",
      "休憩所",
      "食事処",
      "78台"
    ],
    "spring_types": []
  },
  {
    "name": "天然温泉・健康ランド 金沢ゆめのゆ",
    "latitude": 36.5830628,
    "longitude": 136.6202175,
    "features": [
      "天然温泉",
      "露天",
      "サウナ",
      "休憩所",
      "食事処",
      "1400台",
      "塩化"
    ],
    "spring_types": [
      "塩化"
    ]
  },
  {
    "name": "辰口温泉総湯 里山の湯",
    "latitude": 36.4438264,
    "longitude": 136.5470324,
    "features": [
      "天然温泉",
      "露天",
      "サウナ",
      "休憩所",
      "100台",
      "塩化"
    ],
    "spring_types": [
      "塩化"
    ]
  },
  {
    "name": "今江温泉元湯",
    "latitude": 36.3817326,
    "longitude": 136.4367068,
    "features": [
      "天然温泉",
      "サウナ",
      "20台",
      "塩化"
    ],
    "spring_types": [
      "塩化"
    ]
  },
  {
    "name": "石引温泉 亀の湯",
    "latitude": 36.5530441,
    "longitude": 136.6706478,
    "features": [
      "天然温泉",
      "サウナ",
      "30台",
      "塩化",
      "炭酸"
    ],
    "spring_types": [
      "塩化",
      "炭酸"
    ]
  },
  {
    "name": "加賀片山津温泉 総湯",
    "latitude": 36.3453651,
    "longitude": 136.3688969,
    "features": [
      "天然温泉",
      "食事処",
      "50台",
      "塩化"
    ],
    "spring_types": [
      "塩化"
    ]
  },
  {
    "name": "源泉掛け流し しあわせの湯",
    "latitude": 36.5359908,
    "longitude": 136.6178718,
    "features": [
      "天然温泉",
      "露天",
      "サウナ",
      "休憩所",
      "食事処",
      "150台",
      "塩化"
    ],
    "spring_types": [
      "塩化"
    ]
  },
  {
    "name": "輪島KABULET 三ノ湯・七ノ湯",
    "latitude": 37.3938369,
    "longitude": 136.9071112,
    "features": [
      "天然温泉",
      "露天",
      "休憩所",
      "食事処",
      "8台",
      "塩化"
    ],
    "spring_types": [
      "塩化"
    ]
  },
  {
    "name": "木場温泉",
    "latitude": 36.3604558,
    "longitude": 136.4508646,
    "features": [
      "天然温泉",
      "20台",
      "二酸"
    ],
    "spring_types": [
      "二酸"
    ]
  },
  {
    "name": "展望温泉 ほのぼの湯",
    "latitude": 36.6622365,
    "longitude": 136.6531405,
    "features": [
      "天然温泉",
      "サウナ",
      "休憩所",
      "80台",
      "塩化"
    ],
    "spring_types": [
      "塩化"
    ]
  },
  {
    "name": "満天の湯 金沢店",
    "latitude": 36.56008930000001,
    "longitude": 136.6448472,
    "features": [
      "露天",
      "サウナ",
      "休憩所",
      "食事処",
      "180台"
    ],
    "spring_types": []
  },
  {
    "name": "みんなの温泉 金城温泉元湯",
    "latitude": 36.5803831,
    "longitude": 136.597359,
    "features": [
      "天然温泉",
      "露天",
      "サウナ",
      "休憩所",
      "60台",
      "塩化",
      "炭酸"
    ],
    "spring_types": [
      "塩化",
      "炭酸"
    ]
  },
  {
    "name": "金沢温泉 金石荘",
    "latitude": 36.5984585,
    "longitude": 136.5919352,
    "features": [
      "天然温泉",
      "30台",
      "塩化"
    ],
    "spring_types": [
      "塩化"
    ]
  },
  {
    "name": "美川温泉元湯ほんだ",
    "latitude": 36.4865475,
    "longitude": 136.4975498,
    "features": [
      "天然温泉",
      "サウナ",
      "休憩所",
      "50台"
    ],
    "spring_types": []
  },
  {
    "name": "ユーフォリア千里浜",
    "latitude": 36.8896518,
    "longitude": 136.7679913,
    "features": [
      "天然温泉",
      "露天",
      "サウナ",
      "休憩所",
      "食事処",
      "130台",
      "塩化"
    ],
    "spring_types": [
      "塩化"
    ]
  },
  {
    "name": "極楽湯 金沢野々市店",
    "latitude": 36.5349562,
    "longitude": 136.6124225,
    "features": [
      "天然温泉",
      "露天",
      "サウナ",
      "休憩所",
      "食事処",
      "240台",
      "塩化"
    ],
    "spring_types": [
      "塩化"
    ]
  },
  {
    "name": "道の駅 倶利伽羅塾 源平の湯",
    "latitude": 36.6626654,
    "longitude": 136.7680632,
    "features": [
      "食事処",
      "62台"
    ],
    "spring_types": []
  },
  {
    "name": "湯涌温泉総湯 白鷺の湯",
    "latitude": 36.4855428,
    "longitude": 136.7576714,
    "features": [
      "天然温泉",
      "露天",
      "休憩所",
      "15台",
      "塩化",
      "硫酸"
    ],
    "spring_types": [
      "塩化",
      "硫酸"
    ]
  },
  {
    "name": "比咩の湯（ひめのゆ）",
    "latitude": 36.2886858,
    "longitude": 136.6509969,
    "features": [
      "天然温泉",
      "露天",
      "サウナ",
      "休憩所",
      "75台",
      "塩化",
      "硫酸"
    ],
    "spring_types": [
      "塩化",
      "硫酸"
    ]
  },
  {
    "name": "ひょっこり温泉 島の湯",
    "latitude": 37.1191746,
    "longitude": 136.9968326,
    "features": [
      "天然温泉",
      "露天",
      "サウナ",
      "休憩所",
      "食事処",
      "200台",
      "塩化"
    ],
    "spring_types": [
      "塩化"
    ]
  },
  {
    "name": "天然温泉 テルメ金沢",
    "latitude": 36.5597341,
    "longitude": 136.6520376,
    "features": [
      "天然温泉",
      "露天",
      "サウナ",
      "休憩所",
      "食事処",
      "800台",
      "塩化"
    ],
    "spring_types": [
      "塩化"
    ]
  },
  {
    "name": "ピュア涌泉寺",
    "latitude": 36.3925455,
    "longitude": 136.5250249,
    "features": [
      "天然温泉",
      "露天",
      "サウナ",
      "休憩所",
      "食事処",
      "100台",
      "硫酸"
    ],
    "spring_types": [
      "硫酸"
    ]
  },
  {
    "name": "白峰温泉総湯",
    "latitude": 36.174758,
    "longitude": 136.6266577,
    "features": [
      "天然温泉",
      "露天",
      "サウナ",
      "休憩所",
      "20台",
      "炭酸"
    ],
    "spring_types": [
      "炭酸"
    ]
  },
  {
    "name": "珠洲温泉 のとじ荘",
    "latitude": 37.3986314,
    "longitude": 137.2440504,
    "features": [
      "天然温泉",
      "露天",
      "サウナ",
      "休憩所",
      "30台",
      "単純",
      "塩化"
    ],
    "spring_types": [
      "単純",
      "塩化"
    ]
  },
  {
    "name": "三草二木 西圓寺温泉",
    "latitude": 36.4316896,
    "longitude": 136.4792549,
    "features": [
      "天然温泉",
      "露天",
      "食事処",
      "15台",
      "塩化"
    ],
    "spring_types": [
      "塩化"
    ]
  },
  {
    "name": "天然温泉 加賀ゆめのゆ",
    "latitude": 36.324388,
    "longitude": 136.410369,
    "features": [
      "天然温泉",
      "露天",
      "サウナ",
      "休憩所",
      "食事処",
      "800台",
      "塩化",
      "硫酸"
    ],
    "spring_types": [
      "塩化",
      "硫酸"
    ]
  },
  {
    "name": "千里浜なぎさ温泉 里湯ちりはま",
    "latitude": 36.8643411,
    "longitude": 136.7916137,
    "features": [
      "天然温泉",
      "露天",
      "サウナ",
      "休憩所",
      "食事処",
      "60台",
      "塩化"
    ],
    "spring_types": [
      "塩化"
    ]
  },
  {
    "name": "湯けむり屋敷 和おんの湯",
    "latitude": 36.5898622,
    "longitude": 136.6689313,
    "features": [
      "露天",
      "サウナ",
      "休憩所",
      "食事処",
      "100台"
    ],
    "spring_types": []
  },
  {
    "name": "湯来楽 内灘店",
    "latitude": 36.6381295,
    "longitude": 136.623478,
    "features": [
      "天然温泉",
      "露天",
      "サウナ",
      "休憩所",
      "食事処",
      "250台",
      "塩化"
    ],
    "spring_types": [
      "塩化"
    ]
  },
  {
    "name": "倉見温泉 ウェルピア倉見",
    "latitude": 36.6768136,
    "longitude": 136.7603089,
    "features": [
      "天然温泉",
      "休憩所",
      "50台",
      "塩化",
      "炭酸"
    ],
    "spring_types": [
      "塩化",
      "炭酸"
    ]
  },
  {
    "name": "pocapoca御経塚の湯",
    "latitude": 36.54899899999999,
    "longitude": 136.6009648,
    "features": [
      "露天",
      "サウナ",
      "休憩所",
      "45台"
    ],
    "spring_types": []
  },
  {
    "name": "美川温泉 安産の湯",
    "latitude": 36.4942436,
    "longitude": 136.4890259,
    "features": [
      "天然温泉",
      "サウナ",
      "食事処",
      "10台",
      "塩化"
    ],
    "spring_types": [
      "塩化"
    ]
  },
  {
    "name": "満天の湯 白山インター店",
    "latitude": 36.526125,
    "longitude": 136.5809872,
    "features": [
      "露天",
      "サウナ",
      "休憩所",
      "食事処",
      "200台"
    ],
    "spring_types": []
  },
  {
    "name": "大江戸温泉物語 Premium山下家",
    "latitude": 36.2882186,
    "longitude": 136.3621359,
    "features": [
      "天然温泉",
      "露天",
      "150台",
      "塩化",
      "硫酸"
    ],
    "spring_types": [
      "塩化",
      "硫酸"
    ]
  },
  {
    "name": "弘法湯",
    "latitude": 37.0440198,
    "longitude": 136.9623811,
    "features": [
      "サウナ",
      "15台"
    ],
    "spring_types": []
  },
  {
    "name": "別所温泉",
    "latitude": 36.2729177,
    "longitude": 136.3613588,
    "features": [
      "天然温泉",
      "露天",
      "サウナ",
      "100台",
      "硫酸"
    ],
    "spring_types": [
      "硫酸"
    ]
  },
  {
    "name": "くわな湯",
    "latitude": 36.5726366,
    "longitude": 136.6641443,
    "features": [
      "サウナ",
      "7台"
    ],
    "spring_types": []
  },
  {
    "name": "角湯",
    "latitude": 36.3964411,
    "longitude": 136.4165966,
    "features": [
      "20台"
    ],
    "spring_types": []
  },
  {
    "name": "上矢田温泉 やたの湯",
    "latitude": 36.7070358,
    "longitude": 136.7482108,
    "features": [
      "天然温泉",
      "露天",
      "休憩所",
      "食事処",
      "20台",
      "塩化"
    ],
    "spring_types": [
      "塩化"
    ]
  },
  {
    "name": "山中温泉 菊の湯",
    "latitude": 36.2464632,
    "longitude": 136.3729735,
    "features": [
      "天然温泉",
      "19台",
      "硫酸"
    ],
    "spring_types": [
      "硫酸"
    ]
  },
  {
    "name": "里山健康学校 せせらぎの郷",
    "latitude": 36.3322998,
    "longitude": 136.4849441,
    "features": [
      "天然温泉",
      "露天",
      "休憩所",
      "食事処",
      "70台",
      "硫酸"
    ],
    "spring_types": [
      "硫酸"
    ]
  },
  {
    "name": "金沢・湯涌温泉 銭がめ",
    "latitude": 36.4859504,
    "longitude": 136.7737671,
    "features": [
      "天然温泉",
      "食事処",
      "15台",
      "硫酸"
    ],
    "spring_types": [
      "硫酸"
    ]
  },
  {
    "name": "Ｚささのゆ",
    "latitude": 36.5466051,
    "longitude": 136.6513169,
    "features": [
      "サウナ",
      "8台"
    ],
    "spring_types": []
  },
  {
    "name": "湊湯",
    "latitude": 37.3080995,
    "longitude": 137.1484174,
    "features": [],
    "spring_types": []
  },
  {
    "name": "粟津温泉総湯",
    "latitude": 36.3314628,
    "longitude": 136.4464638,
    "features": [
      "天然温泉",
      "休憩所",
      "10台",
      "塩化",
      "硫酸"
    ],
    "spring_types": [
      "塩化",
      "硫酸"
    ]
  },
  {
    "name": "和倉温泉 花ごよみ",
    "latitude": 37.0654483,
    "longitude": 136.8911635,
    "features": [
      "天然温泉",
      "サウナ",
      "30台",
      "塩化"
    ],
    "spring_types": [
      "塩化"
    ]
  },
  {
    "name": "アクアパーク シ・オン",
    "latitude": 37.0080755,
    "longitude": 136.779949,
    "features": [
      "天然温泉",
      "露天",
      "サウナ",
      "休憩所",
      "食事処",
      "170台",
      "塩化"
    ],
    "spring_types": [
      "塩化"
    ]
  },
  {
    "name": "めおと岩温泉 ラクヨウ",
    "latitude": 36.3846988,
    "longitude": 136.6128922,
    "features": [
      "天然温泉",
      "休憩所",
      "50台",
      "硫酸"
    ],
    "spring_types": [
      "硫酸"
    ]
  },
  {
    "name": "山代温泉 古総湯",
    "latitude": 36.2890015,
    "longitude": 136.3610147,
    "features": [
      "天然温泉",
      "休憩所",
      "100台",
      "塩化",
      "硫酸"
    ],
    "spring_types": [
      "塩化",
      "硫酸"
    ]
  },
  {
    "name": "弁天湯",
    "latitude": 37.0765976,
    "longitude": 136.9341527,
    "features": [
      "サウナ",
      "3台"
    ],
    "spring_types": []
  },
  {
    "name": "ヘルシーバス268",
    "latitude": 36.5554214,
    "longitude": 136.6073686,
    "features": [
      "サウナ",
      "休憩所",
      "23台"
    ],
    "spring_types": []
  },
  {
    "name": "バードハミング鳥越 弘法の湯",
    "latitude": 36.3715244,
    "longitude": 136.6090378,
    "features": [
      "天然温泉",
      "サウナ",
      "休憩所",
      "食事処",
      "150台",
      "硫酸"
    ],
    "spring_types": [
      "硫酸"
    ]
  },
  {
    "name": "川北町ふれあい健康センター 川北温泉 ふれあいの湯",
    "latitude": 36.4697137,
    "longitude": 136.5413245,
    "features": [
      "天然温泉",
      "サウナ",
      "休憩所",
      "食事処",
      "200台",
      "塩化"
    ],
    "spring_types": [
      "塩化"
    ]
  },
  {
    "name": "天然温泉 アパスパ金沢中央",
    "latitude": 36.5599607,
    "longitude": 136.6530811,
    "features": [
      "天然温泉",
      "露天",
      "サウナ",
      "休憩所",
      "66台",
      "塩化"
    ],
    "spring_types": [
      "塩化"
    ]
  },
  {
    "name": "こばし湯",
    "latitude": 36.5757701,
    "longitude": 136.6620136,
    "features": [
      "サウナ",
      "6台"
    ],
    "spring_types": []
  },
  {
    "name": "勝崎の湯",
    "latitude": 36.6735499,
    "longitude": 136.730532,
    "features": [
      "30台"
    ],
    "spring_types": []
  },
  {
    "name": "たから湯",
    "latitude": 37.0489812,
    "longitude": 136.9619448,
    "features": [
      "サウナ",
      "休憩所",
      "12台"
    ],
    "spring_types": []
  },
  {
    "name": "山中温泉 菊の湯第二",
    "latitude": 36.2650708,
    "longitude": 136.3612238,
    "features": [
      "天然温泉",
      "40台"
    ],
    "spring_types": []
  },
  {
    "name": "ほっとらんどNANAO",
    "latitude": 37.0234934,
    "longitude": 136.9196644,
    "features": [
      "天然温泉",
      "露天",
      "サウナ",
      "休憩所",
      "食事処",
      "200台",
      "塩化"
    ],
    "spring_types": [
      "塩化"
    ]
  },
  {
    "name": "宝湯",
    "latitude": 36.8417618,
    "longitude": 136.7598825,
    "features": [
      "露天",
      "サウナ",
      "休憩所",
      "40台"
    ],
    "spring_types": []
  },
  {
    "name": "松の湯",
    "latitude": 36.5651566,
    "longitude": 136.6517536,
    "features": [
      "サウナ",
      "4台"
    ],
    "spring_types": []
  },
  {
    "name": "新中宮温泉センター",
    "latitude": 36.2765012,
    "longitude": 136.6896039,
    "features": [
      "天然温泉",
      "休憩所",
      "100台",
      "炭酸",
      "硫酸"
    ],
    "spring_types": [
      "炭酸",
      "硫酸"
    ]
  },
  {
    "name": "太子温泉共同浴場",
    "latitude": 36.2756678,
    "longitude": 136.3280905,
    "features": [
      "天然温泉",
      "休憩所",
      "13台",
      "単純"
    ],
    "spring_types": [
      "単純"
    ]
  },
  {
    "name": "大門温泉センター",
    "latitude": 36.3238946,
    "longitude": 136.6469669,
    "features": [
      "天然温泉",
      "休憩所",
      "100台",
      "塩化",
      "硫酸"
    ],
    "spring_types": [
      "塩化",
      "硫酸"
    ]
  },
  {
    "name": "深谷温泉 元湯石屋",
    "latitude": 36.6136685,
    "longitude": 136.7208551,
    "features": [
      "天然温泉",
      "露天",
      "30台",
      "炭酸"
    ],
    "spring_types": [
      "炭酸"
    ]
  },
  {
    "name": "いきいきランドかが aim BS エイム",
    "latitude": 36.2857755,
    "longitude": 136.2915506,
    "features": [
      "サウナ",
      "休憩所",
      "95台"
    ],
    "spring_types": []
  },
  {
    "name": "大聖寺温泉 日谷町共同浴場",
    "latitude": 36.2768321,
    "longitude": 136.3336273,
    "features": [
      "天然温泉",
      "4台"
    ],
    "spring_types": []
  },
  {
    "name": "辰口福祉会館 ふるさと温泉",
    "latitude": 36.4445589,
    "longitude": 136.5481063,
    "features": [
      "天然温泉",
      "休憩所",
      "食事処",
      "280台",
      "塩化",
      "硫酸"
    ],
    "spring_types": [
      "塩化",
      "硫酸"
    ]
  },
  {
    "name": "能美市地域共生交流館",
    "latitude": 36.4346466,
    "longitude": 136.520464,
    "features": [
      "天然温泉",
      "38台"
    ],
    "spring_types": []
  },
  {
    "name": "志賀町とぎ地域福祉センター とぎ温泉 ますほの湯",
    "latitude": 37.1538641,
    "longitude": 136.7005741,
    "features": [
      "天然温泉",
      "露天",
      "サウナ",
      "休憩所",
      "40台",
      "塩化"
    ],
    "spring_types": [
      "塩化"
    ]
  },
  {
    "name": "大江戸温泉物語 片山津温泉ながやま",
    "latitude": 36.3456931,
    "longitude": 136.3755124,
    "features": [
      "天然温泉",
      "露天",
      "休憩所",
      "200台",
      "塩化"
    ],
    "spring_types": [
      "塩化"
    ]
  },
  {
    "name": "総合型地域スポーツクラブ ジョイアクロス",
    "latitude": 36.7657049,
    "longitude": 136.7375127,
    "features": [
      "露天",
      "サウナ",
      "休憩所",
      "100台"
    ],
    "spring_types": []
  },
  {
    "name": "山代温泉 総湯",
    "latitude": 36.2884783,
    "longitude": 136.3612483,
    "features": [
      "天然温泉",
      "55台",
      "塩化",
      "硫酸"
    ],
    "spring_types": [
      "塩化",
      "硫酸"
    ]
  },
  {
    "name": "健康ハウス憩",
    "latitude": 36.9542703,
    "longitude": 136.8555526,
    "features": [
      "サウナ",
      "休憩所",
      "食事処",
      "20台"
    ],
    "spring_types": []
  },
  {
    "name": "健康増進センターアスロン",
    "latitude": 37.0552366,
    "longitude": 136.8972429,
    "features": [
      "天然温泉",
      "サウナ",
      "140台",
      "塩化"
    ],
    "spring_types": [
      "塩化"
    ]
  },
  {
    "name": "あわづ湯",
    "latitude": 36.561004,
    "longitude": 136.6452036,
    "features": [
      "サウナ",
      "休憩所",
      "6台"
    ],
    "spring_types": []
  },
  {
    "name": "大江戸温泉物語Premium よしのや依緑園",
    "latitude": 36.2443503,
    "longitude": 136.3717146,
    "features": [
      "天然温泉",
      "露天",
      "サウナ",
      "休憩所",
      "60台",
      "硫酸"
    ],
    "spring_types": [
      "硫酸"
    ]
  },
  {
    "name": "かのや光楽苑",
    "latitude": 36.3459551,
    "longitude": 136.3679029,
    "features": [
      "天然温泉",
      "露天",
      "休憩所",
      "60台",
      "塩化"
    ],
    "spring_types": [
      "塩化"
    ]
  },
  {
    "name": "大江戸温泉物語Premium 加賀まるや",
    "latitude": 36.3459172,
    "longitude": 136.3636065,
    "features": [
      "天然温泉",
      "露天",
      "サウナ",
      "80台",
      "塩化"
    ],
    "spring_types": [
      "塩化"
    ]
  },
  {
    "name": "和倉温泉 味な宿 宝仙閣",
    "latitude": 37.0888748,
    "longitude": 136.9145431,
    "features": [
      "天然温泉",
      "露天",
      "休憩所",
      "40台",
      "塩化"
    ],
    "spring_types": [
      "塩化"
    ]
  },
  {
    "name": "縄文温泉の宿 真脇ポーレポーレ",
    "latitude": 37.3076881,
    "longitude": 137.2078206,
    "features": [
      "天然温泉",
      "露天",
      "休憩所",
      "食事処",
      "30台",
      "炭酸"
    ],
    "spring_types": [
      "炭酸"
    ]
  },
  {
    "name": "和倉温泉 能州いろは",
    "latitude": 37.0901197,
    "longitude": 136.9166102,
    "features": [
      "天然温泉",
      "露天",
      "30台",
      "塩化"
    ],
    "spring_types": [
      "塩化"
    ]
  },
  {
    "name": "アパホテル＜小松グランド＞ アパスパ小松",
    "latitude": 36.3994913,
    "longitude": 136.4494085,
    "features": [
      "露天",
      "サウナ",
      "休憩所",
      "30台"
    ],
    "spring_types": []
  },
  {
    "name": "シーサイドヴィラ渤海 渤海温泉",
    "latitude": 37.1408878,
    "longitude": 136.724559,
    "features": [
      "天然温泉",
      "露天",
      "サウナ",
      "休憩所",
      "80台",
      "塩化"
    ],
    "spring_types": [
      "塩化"
    ]
  },
  {
    "name": "中宮温泉 にしやま旅館",
    "latitude": 36.2585009,
    "longitude": 136.7644945,
    "features": [
      "天然温泉",
      "露天",
      "食事処",
      "12台",
      "塩化",
      "炭酸"
    ],
    "spring_types": [
      "塩化",
      "炭酸"
    ]
  },
  {
    "name": "大江戸温泉物語Premium 山中グランドホテル",
    "latitude": 36.2533706,
    "longitude": 136.3722973,
    "features": [
      "天然温泉",
      "露天",
      "サウナ",
      "休憩所",
      "食事処",
      "100台",
      "硫酸"
    ],
    "spring_types": [
      "硫酸"
    ]
  },
  {
    "name": "大江戸温泉物語 山代彩朝楽",
    "latitude": 36.2866462,
    "longitude": 136.3550656,
    "features": [
      "天然温泉",
      "サウナ",
      "休憩所",
      "食事処",
      "70台",
      "単純"
    ],
    "spring_types": [
      "単純"
    ]
  },
  {
    "name": "国民宿舎 能登うしつ荘",
    "latitude": 37.3013755,
    "longitude": 137.170617,
    "features": [
      "サウナ",
      "食事処",
      "50台"
    ],
    "spring_types": []
  },
  {
    "name": "アパホテル＆リゾート 加賀片山津温泉 佳水郷",
    "latitude": 36.3514293,
    "longitude": 136.3618975,
    "features": [
      "天然温泉",
      "露天",
      "サウナ",
      "食事処",
      "200台",
      "塩化"
    ],
    "spring_types": [
      "塩化"
    ]
  },
  {
    "name": "国民宿舎 能登やなぎだ荘",
    "latitude": 37.366586,
    "longitude": 137.0899916,
    "features": [
      "天然温泉",
      "食事処",
      "50台"
    ],
    "spring_types": []
  },
  {
    "name": "内灘町サイクリングターミナル ナダスタ",
    "latitude": 36.6652977,
    "longitude": 136.6521392,
    "features": [
      "天然温泉",
      "休憩所",
      "食事処",
      "100台",
      "塩化"
    ],
    "spring_types": [
      "塩化"
    ]
  },
  {
    "name": "白山温泉 永井旅館",
    "latitude": 36.1144573,
    "longitude": 136.7006269,
    "features": [
      "天然温泉",
      "30台",
      "塩化",
      "炭酸"
    ],
    "spring_types": [
      "塩化",
      "炭酸"
    ]
  },
  {
    "name": "ゆのくに天祥",
    "latitude": 36.29384160000001,
    "longitude": 136.3643254,
    "features": [
      "天然温泉",
      "露天",
      "サウナ",
      "休憩所",
      "食事処",
      "300台",
      "塩化",
      "硫酸"
    ],
    "spring_types": [
      "塩化",
      "硫酸"
    ]
  },
  {
    "name": "満天ノ 辻のや",
    "latitude": 36.328071,
    "longitude": 136.4424414,
    "features": [
      "天然温泉",
      "休憩所",
      "200台",
      "塩化",
      "硫酸"
    ],
    "spring_types": [
      "塩化",
      "硫酸"
    ]
  },
  {
    "name": "ホテルウェルネス能登路",
    "latitude": 36.8519674,
    "longitude": 136.7646763,
    "features": [
      "天然温泉",
      "露天",
      "サウナ",
      "休憩所",
      "食事処",
      "50台",
      "塩化",
      "炭酸"
    ],
    "spring_types": [
      "塩化",
      "炭酸"
    ]
  },
  {
    "name": "湯川温泉 龍王閣",
    "latitude": 37.082199,
    "longitude": 137.038763,
    "features": [
      "天然温泉",
      "20台",
      "塩化"
    ],
    "spring_types": [
      "塩化"
    ]
  },
  {
    "name": "寺井湯",
    "latitude": 36.4378174,
    "longitude": 136.4939073,
    "features": [
      "サウナ",
      "15台"
    ],
    "spring_types": []
  },
  {
    "name": "小松グリーンホテル",
    "latitude": 36.4196099,
    "longitude": 136.4332371,
    "features": [
      "天然温泉",
      "サウナ",
      "休憩所",
      "100台",
      "塩化"
    ],
    "spring_types": [
      "塩化"
    ]
  },
  {
    "name": "体験交流施設 ラブロ恋路",
    "latitude": 37.367767,
    "longitude": 137.2443714,
    "features": [
      "露天",
      "サウナ",
      "食事処",
      "35台"
    ],
    "spring_types": []
  },
  {
    "name": "能登七見健康福祉の郷 なごみ",
    "latitude": 37.2664573,
    "longitude": 137.0934921,
    "features": [
      "天然温泉",
      "露天",
      "サウナ",
      "休憩所",
      "食事処",
      "100台",
      "塩化"
    ],
    "spring_types": [
      "塩化"
    ]
  },
  {
    "name": "山中温泉 ゆけむり健康村 ゆーゆー館",
    "latitude": 36.2376011,
    "longitude": 136.3674192,
    "features": [
      "天然温泉",
      "露天",
      "休憩所",
      "食事処",
      "120台",
      "硫酸"
    ],
    "spring_types": [
      "硫酸"
    ]
  },
  {
    "name": "キャッスル真名井 湯ったり館",
    "latitude": 37.2224501,
    "longitude": 136.9184697,
    "features": [
      "サウナ",
      "休憩所",
      "100台"
    ],
    "spring_types": []
  },
  {
    "name": "なかじま猿田彦温泉 いやしの湯",
    "latitude": 37.1441074,
    "longitude": 136.8739974,
    "features": [
      "天然温泉",
      "露天",
      "サウナ",
      "休憩所",
      "食事処",
      "50台",
      "塩化"
    ],
    "spring_types": [
      "塩化"
    ]
  },
  {
    "name": "白山すぎのこ温泉",
    "latitude": 36.3319902,
    "longitude": 136.6429291,
    "features": [
      "天然温泉",
      "休憩所",
      "40台",
      "塩化",
      "硫酸"
    ],
    "spring_types": [
      "塩化",
      "硫酸"
    ]
  },
  {
    "name": "珠洲温泉 宝湯別館",
    "latitude": 37.4028085,
    "longitude": 137.2411489,
    "features": [
      "天然温泉",
      "5台",
      "単純"
    ],
    "spring_types": [
      "単純"
    ]
  },
  {
    "name": "女原老人憩の家",
    "latitude": 36.2786508,
    "longitude": 136.6472566,
    "features": [
      "天然温泉",
      "塩化",
      "硫酸"
    ],
    "spring_types": [
      "塩化",
      "硫酸"
    ]
  },
  {
    "name": "白山癒しの湯 天領",
    "latitude": 36.266177,
    "longitude": 136.7179716,
    "features": [
      "天然温泉",
      "露天",
      "サウナ",
      "休憩所",
      "30台",
      "塩化",
      "炭酸"
    ],
    "spring_types": [
      "塩化",
      "炭酸"
    ]
  },
  {
    "name": "pocapoca諸江の湯",
    "latitude": 36.5957507,
    "longitude": 136.6446418,
    "features": [
      "露天",
      "サウナ",
      "休憩所",
      "48台"
    ],
    "spring_types": []
  },
  {
    "name": "小松市民センター はつらつセンター",
    "latitude": 36.4302318,
    "longitude": 136.4488254,
    "features": [
      "300台"
    ],
    "spring_types": []
  },
  {
    "name": "ホテルメルカート輪島 長山の湯",
    "latitude": 37.3874134,
    "longitude": 136.9087267,
    "features": [
      "サウナ",
      "休憩所",
      "25台"
    ],
    "spring_types": []
  },
  {
    "name": "和倉温泉 ホテル海望",
    "latitude": 37.0886426,
    "longitude": 136.9205711,
    "features": [
      "天然温泉",
      "露天",
      "サウナ",
      "150台",
      "塩化"
    ],
    "spring_types": [
      "塩化"
    ]
  },
  {
    "name": "ことぶき湯",
    "latitude": 37.0471555,
    "longitude": 136.9634807,
    "features": [
      "7台"
    ],
    "spring_types": []
  },
  {
    "name": "潮風のお宿 のときんぷら",
    "latitude": 37.312963,
    "longitude": 137.234404,
    "features": [
      "露天",
      "127台"
    ],
    "spring_types": []
  },
  {
    "name": "海の和風館 宿守屋寿苑",
    "latitude": 37.0866463,
    "longitude": 136.9256654,
    "features": [
      "天然温泉",
      "露天",
      "サウナ",
      "80台",
      "塩化"
    ],
    "spring_types": [
      "塩化"
    ]
  },
  {
    "name": "和倉温泉 天空の宿 大観荘",
    "latitude": 37.0897932,
    "longitude": 136.9115066,
    "features": [
      "天然温泉",
      "露天",
      "サウナ",
      "70台",
      "塩化"
    ],
    "spring_types": [
      "塩化"
    ]
  },
  {
    "name": "金城温泉 千寿荘",
    "latitude": 37.137035,
    "longitude": 136.937293,
    "features": [
      "天然温泉",
      "食事処",
      "20台",
      "塩化",
      "炭酸"
    ],
    "spring_types": [
      "塩化",
      "炭酸"
    ]
  },
  {
    "name": "岩間温泉 山崎旅館",
    "latitude": 36.249224,
    "longitude": 136.7479083,
    "features": [
      "天然温泉",
      "露天",
      "食事処",
      "10台",
      "塩化"
    ],
    "spring_types": [
      "塩化"
    ]
  },
  {
    "name": "ルートイングランティア 小松エアポート",
    "latitude": 36.41901,
    "longitude": 136.431414,
    "features": [
      "天然温泉",
      "270台",
      "塩化"
    ],
    "spring_types": [
      "塩化"
    ]
  },
  {
    "name": "リブマックスリゾート 加賀山代",
    "latitude": 36.2921526,
    "longitude": 136.3641129,
    "features": [
      "天然温泉",
      "露天",
      "サウナ",
      "休憩所",
      "60台",
      "単純"
    ],
    "spring_types": [
      "単純"
    ]
  },
  {
    "name": "北陸金沢山中温泉 すゞや今日楼",
    "latitude": 36.2370187,
    "longitude": 136.3695929,
    "features": [
      "天然温泉",
      "露天",
      "休憩所",
      "食事処",
      "50台",
      "硫酸"
    ],
    "spring_types": [
      "硫酸"
    ]
  },
  {
    "name": "お宿やました",
    "latitude": 36.4852379,
    "longitude": 136.7575105,
    "features": [
      "天然温泉",
      "露天",
      "食事処",
      "20台"
    ],
    "spring_types": []
  },
  {
    "name": "ちりはま ホテルゆ華",
    "latitude": 36.8852447,
    "longitude": 136.7675446,
    "features": [
      "天然温泉",
      "露天",
      "サウナ",
      "休憩所",
      "食事処",
      "70台",
      "塩化",
      "炭酸"
    ],
    "spring_types": [
      "塩化",
      "炭酸"
    ]
  },
  {
    "name": "都忘れ七尾湾リゾート 能登小牧台",
    "latitude": 37.14409029999999,
    "longitude": 136.8755537,
    "features": [
      "天然温泉",
      "露天",
      "サウナ",
      "55台",
      "塩化"
    ],
    "spring_types": [
      "塩化"
    ]
  },
  {
    "name": "森の栖 リゾート＆スパ",
    "latitude": 36.2896264,
    "longitude": 136.3649936,
    "features": [
      "天然温泉",
      "露天",
      "サウナ",
      "休憩所",
      "食事処",
      "40台",
      "硫酸"
    ],
    "spring_types": [
      "硫酸"
    ]
  },
  {
    "name": "天然温泉 白山里",
    "latitude": 36.3178407,
    "longitude": 136.659178,
    "features": [
      "天然温泉",
      "食事処",
      "30台",
      "炭酸",
      "硫酸"
    ],
    "spring_types": [
      "炭酸",
      "硫酸"
    ]
  },
  {
    "name": "癒しのリゾート・加賀の幸 ホテル アローレ",
    "latitude": 36.3583843,
    "longitude": 136.3760632,
    "features": [
      "天然温泉",
      "露天",
      "サウナ",
      "休憩所",
      "食事処",
      "280台",
      "塩化"
    ],
    "spring_types": [
      "塩化"
    ]
  },
  {
    "name": "辰口温泉 たがわ龍泉閣",
    "latitude": 36.4452619,
    "longitude": 136.5456046,
    "features": [
      "天然温泉",
      "露天",
      "サウナ",
      "休憩所",
      "100台",
      "塩化"
    ],
    "spring_types": [
      "塩化"
    ]
  },
  {
    "name": "山中温泉 白鷺湯たわらや",
    "latitude": 36.2475829,
    "longitude": 136.3831429,
    "features": [
      "天然温泉",
      "80台",
      "硫酸"
    ],
    "spring_types": [
      "硫酸"
    ]
  },
  {
    "name": "昭和湯治の宿 緑華苑",
    "latitude": 36.3317563,
    "longitude": 136.447296,
    "features": [
      "天然温泉",
      "10台",
      "単純"
    ],
    "spring_types": [
      "単純"
    ]
  },
  {
    "name": "大江戸温泉物語 あわづグランドホテル",
    "latitude": 36.3308424,
    "longitude": 136.4473113,
    "features": [
      "天然温泉",
      "100台"
    ],
    "spring_types": []
  },
  {
    "name": "赤穂谷温泉",
    "latitude": 36.3892988,
    "longitude": 136.5216878,
    "features": [
      "天然温泉",
      "露天",
      "50台",
      "単純"
    ],
    "spring_types": [
      "単純"
    ]
  },
  {
    "name": "山代温泉 吉田屋山王閣",
    "latitude": 36.2880982,
    "longitude": 136.364261,
    "features": [
      "天然温泉",
      "露天",
      "サウナ",
      "20台",
      "塩化",
      "硫酸"
    ],
    "spring_types": [
      "塩化",
      "硫酸"
    ]
  },
  {
    "name": "山中温泉 お花見久兵衛",
    "latitude": 36.2386283,
    "longitude": 136.3694481,
    "features": [
      "天然温泉",
      "露天",
      "サウナ",
      "休憩所",
      "80台",
      "硫酸"
    ],
    "spring_types": [
      "硫酸"
    ]
  },
  {
    "name": "小舞子温泉 足湯",
    "latitude": 36.4687201,
    "longitude": 136.4735043,
    "features": [
      "天然温泉",
      "駐車場"
    ],
    "spring_types": []
  },
  {
    "name": "千丈温泉 清流",
    "latitude": 36.3461016,
    "longitude": 136.6790313,
    "features": [
      "天然温泉",
      "休憩所",
      "食事処",
      "100台",
      "単純"
    ],
    "spring_types": [
      "単純"
    ]
  },
  {
    "name": "輪島温泉 ホテルこうしゅうえん",
    "latitude": 37.3946212,
    "longitude": 136.9151006,
    "features": [
      "天然温泉",
      "露天",
      "サウナ",
      "休憩所",
      "100台",
      "塩化"
    ],
    "spring_types": [
      "塩化"
    ]
  },
  {
    "name": "いこいの村 能登半島",
    "latitude": 37.0233335,
    "longitude": 136.7592643,
    "features": [
      "天然温泉",
      "露天",
      "サウナ",
      "200台",
      "塩化"
    ],
    "spring_types": [
      "塩化"
    ]
  },
  {
    "name": "和倉温泉 多田屋",
    "latitude": 37.0753118,
    "longitude": 136.9157356,
    "features": [
      "天然温泉",
      "露天",
      "サウナ",
      "休憩所",
      "食事処",
      "100台",
      "塩化"
    ],
    "spring_types": [
      "塩化"
    ]
  },
  {
    "name": "大江戸温泉物語 山中彩朝楽",
    "latitude": 36.2350567,
    "longitude": 136.3660578,
    "features": [
      "天然温泉",
      "サウナ",
      "食事処",
      "100台",
      "硫酸"
    ],
    "spring_types": [
      "硫酸"
    ]
  },
  {
    "name": "加賀屋 宝生亭",
    "latitude": 36.2883045,
    "longitude": 136.3563948,
    "features": [
      "天然温泉",
      "露天",
      "60台",
      "単純"
    ],
    "spring_types": [
      "単純"
    ]
  },
  {
    "name": "道の駅高松 里山館足湯",
    "latitude": 36.7862989,
    "longitude": 136.7246796,
    "features": [
      "106台"
    ],
    "spring_types": []
  },
  {
    "name": "天神の湯 足湯・手湯",
    "latitude": 36.6804506,
    "longitude": 136.7624124,
    "features": [
      "天然温泉",
      "5台"
    ],
    "spring_types": []
  },
  {
    "name": "山代温泉 みやびの宿 加賀百万石",
    "latitude": 36.2863227,
    "longitude": 136.3533497,
    "features": [
      "天然温泉",
      "露天",
      "サウナ",
      "食事処",
      "200台",
      "硫酸"
    ],
    "spring_types": [
      "硫酸"
    ]
  },
  {
    "name": "山中温泉 湯畑の宿 花つばき",
    "latitude": 36.2269515,
    "longitude": 136.3611872,
    "features": [
      "天然温泉",
      "露天",
      "80台"
    ],
    "spring_types": []
  },
  {
    "name": "彩華の宿 多々見",
    "latitude": 36.2859221,
    "longitude": 136.3566458,
    "features": [
      "天然温泉",
      "露天",
      "40台",
      "塩化",
      "硫酸"
    ],
    "spring_types": [
      "塩化",
      "硫酸"
    ]
  },
  {
    "name": "飯田わくわく広場 足湯",
    "latitude": 37.4359433,
    "longitude": 137.2615265,
    "features": [
      "天然温泉",
      "駐車場"
    ],
    "spring_types": []
  },
  {
    "name": "温泉めい想倶楽部 富士屋旅館",
    "latitude": 36.2869446,
    "longitude": 136.3545624,
    "features": [
      "天然温泉",
      "50台",
      "硫酸"
    ],
    "spring_types": [
      "硫酸"
    ]
  },
  {
    "name": "みどりの宿 萬松閣",
    "latitude": 36.2897307,
    "longitude": 136.3628749,
    "features": [
      "天然温泉",
      "露天",
      "サウナ",
      "100台",
      "塩化",
      "硫酸"
    ],
    "spring_types": [
      "塩化",
      "硫酸"
    ]
  },
  {
    "name": "湯の宿 白山菖蒲亭",
    "latitude": 36.2843337,
    "longitude": 136.355376,
    "features": [
      "天然温泉",
      "露天",
      "150台",
      "硫酸"
    ],
    "spring_types": [
      "硫酸"
    ]
  },
  {
    "name": "セレクトグランド加賀山中",
    "latitude": 36.2358742,
    "longitude": 136.3683184,
    "features": [
      "天然温泉",
      "露天",
      "サウナ",
      "35台",
      "硫酸"
    ],
    "spring_types": [
      "硫酸"
    ]
  },
  {
    "name": "弁天崎源泉公園 手湯 変わり湯",
    "latitude": 37.0878729,
    "longitude": 136.9156761,
    "features": [
      "天然温泉"
    ],
    "spring_types": []
  },
  {
    "name": "湯っ足りパーク 妻恋舟の湯",
    "latitude": 37.0876719,
    "longitude": 136.9247819,
    "features": [
      "天然温泉",
      "30台"
    ],
    "spring_types": []
  },
  {
    "name": "足湯 湯楽里",
    "latitude": 37.3943736,
    "longitude": 136.9054124,
    "features": [
      "天然温泉",
      "4台"
    ],
    "spring_types": []
  },
  {
    "name": "北陸 栗津温泉 法師 HOUSHI",
    "latitude": 36.3313463,
    "longitude": 136.4473788,
    "features": [
      "天然温泉",
      "露天",
      "サウナ",
      "休憩所",
      "40台",
      "硫酸"
    ],
    "spring_types": [
      "硫酸"
    ]
  },
  {
    "name": "中宮温泉 湯宿くろゆり",
    "latitude": 36.2588249,
    "longitude": 136.7642883,
    "features": [
      "天然温泉",
      "食事処",
      "7台",
      "塩化",
      "炭酸"
    ],
    "spring_types": [
      "塩化",
      "炭酸"
    ]
  },
  {
    "name": "ホテル丸尾ビレージ",
    "latitude": 36.2676939,
    "longitude": 136.7182879,
    "features": [
      "天然温泉",
      "露天",
      "休憩所",
      "食事処",
      "10台",
      "塩化"
    ],
    "spring_types": [
      "塩化"
    ]
  },
  {
    "name": "黒川温泉セミナーハウス 山びこ",
    "latitude": 37.3655492,
    "longitude": 137.0425742,
    "features": [
      "天然温泉",
      "15台"
    ],
    "spring_types": []
  },
  {
    "name": "足の湯 えんがわ",
    "latitude": 36.3448239,
    "longitude": 136.366393,
    "features": [
      "天然温泉",
      "50台"
    ],
    "spring_types": []
  },
  {
    "name": "行善寺足湯",
    "latitude": 36.5262756,
    "longitude": 136.5516646,
    "features": [
      "天然温泉"
    ],
    "spring_types": []
  },
  {
    "name": "岩間温泉元湯",
    "latitude": 36.2132771,
    "longitude": 136.7156029,
    "features": [
      "天然温泉",
      "露天",
      "塩化"
    ],
    "spring_types": [
      "塩化"
    ]
  },
  {
    "name": "六角パティオの足湯",
    "latitude": 37.0808833,
    "longitude": 136.9275204,
    "features": [
      "天然温泉"
    ],
    "spring_types": []
  },
  {
    "name": "だいこん足の湯",
    "latitude": 36.886121,
    "longitude": 136.7686449,
    "features": [
      "天然温泉",
      "駐車場"
    ],
    "spring_types": []
  },
  {
    "name": "一里野高原ホテルろあん",
    "latitude": 36.266933,
    "longitude": 136.7169351,
    "features": [
      "天然温泉",
      "露天",
      "食事処",
      "45台",
      "塩化"
    ],
    "spring_types": [
      "塩化"
    ]
  },
  {
    "name": "湯の出 あし湯",
    "latitude": 36.4890007,
    "longitude": 136.7558768,
    "features": [
      "天然温泉"
    ],
    "spring_types": []
  },
  {
    "name": "辰口温泉足湯",
    "latitude": 36.443425,
    "longitude": 136.5474672,
    "features": [
      "天然温泉",
      "30台"
    ],
    "spring_types": []
  },
  {
    "name": "山中温泉 笠の露",
    "latitude": 36.2460556,
    "longitude": 136.3717684,
    "features": [
      "天然温泉"
    ],
    "spring_types": []
  },
  {
    "name": "白鷺の足湯",
    "latitude": 36.4860124,
    "longitude": 136.7574838,
    "features": [
      "天然温泉",
      "15台"
    ],
    "spring_types": []
  },
  {
    "name": "粟津温泉 結びの足湯",
    "latitude": 36.3308424,
    "longitude": 136.4473113,
    "features": [
      "天然温泉"
    ],
    "spring_types": []
  },
  {
    "name": "大江戸温泉物語 わんわんリゾート粟津",
    "latitude": 36.3308819,
    "longitude": 136.4449236,
    "features": [
      "天然温泉",
      "露天",
      "サウナ",
      "食事処",
      "60台"
    ],
    "spring_types": []
  },
  {
    "name": "親谷温泉 親谷の湯",
    "latitude": 36.2481068,
    "longitude": 136.7932751,
    "features": [
      "天然温泉",
      "露天"
    ],
    "spring_types": []
  },
  {
    "name": "ほのぼの湯 足湯",
    "latitude": 36.6622365,
    "longitude": 136.6531405,
    "features": [
      "天然温泉",
      "駐車場"
    ],
    "spring_types": []
  },
  {
    "name": "山代温泉 源泉足湯",
    "latitude": 36.2890015,
    "longitude": 136.3610147,
    "features": [
      "天然温泉"
    ],
    "spring_types": []
  },
  {
    "name": "川端の湯宿 滝亭",
    "latitude": 36.5176242,
    "longitude": 136.6892606,
    "features": [
      "天然温泉",
      "露天",
      "50台",
      "塩化",
      "炭酸"
    ],
    "spring_types": [
      "塩化",
      "炭酸"
    ]
  },
  {
    "name": "和倉温泉総湯 足湯",
    "latitude": 37.0889362,
    "longitude": 136.9164731,
    "features": [
      "天然温泉"
    ],
    "spring_types": []
  },
  {
    "name": "休暇村 能登千里浜",
    "latitude": 36.9098016,
    "longitude": 136.770618,
    "features": [
      "天然温泉",
      "露天",
      "サウナ",
      "100台",
      "塩化",
      "硫酸"
    ],
    "spring_types": [
      "塩化",
      "硫酸"
    ]
  },
  {
    "name": "野々市市 温泉スタンド",
    "latitude": 36.5316775,
    "longitude": 136.5955325,
    "features": [
      "天然温泉",
      "駐車場",
      "塩化",
      "炭酸"
    ],
    "spring_types": [
      "塩化",
      "炭酸"
    ]
  },
  {
    "name": "白山一里野温泉 雪国荘",
    "latitude": 36.2691548,
    "longitude": 136.7155729,
    "features": [
      "食事処",
      "駐車場",
      "塩化",
      "炭酸"
    ],
    "spring_types": [
      "塩化",
      "炭酸"
    ]
  },
  {
    "name": "Sauna Lab KEmuRI -サウナラボ ケムリ-",
    "latitude": 36.5606303,
    "longitude": 136.6501975,
    "features": [
      "サウナ"
    ],
    "spring_types": []
  },
  {
    "name": "中宮温泉 薬師の湯",
    "latitude": 36.2582928,
    "longitude": 136.7646088,
    "features": [
      "天然温泉",
      "露天",
      "3台"
    ],
    "spring_types": []
  },
  {
    "name": "ズックのサウナ",
    "latitude": 37.3034404,
    "longitude": 137.0233297,
    "features": [
      "サウナ"
    ],
    "spring_types": []
  },
  {
    "name": "西圓寺温泉足湯",
    "latitude": 36.4316896,
    "longitude": 136.4792549,
    "features": [
      "天然温泉",
      "駐車場"
    ],
    "spring_types": []
  },
  {
    "name": "道の駅 ころ柿の里しか",
    "latitude": 37.0069274,
    "longitude": 136.7800396,
    "features": [
      "天然温泉",
      "170台"
    ],
    "spring_types": []
  },
  {
    "name": "金沢 private sauna ROKU",
    "latitude": 36.573548,
    "longitude": 136.6474402,
    "features": [
      "サウナ",
      "休憩所"
    ],
    "spring_types": []
  },
  {
    "name": "温泉センター天領 足湯",
    "latitude": 36.266177,
    "longitude": 136.7179716,
    "features": [
      "天然温泉",
      "駐車場"
    ],
    "spring_types": []
  },
  {
    "name": "湯元の広場",
    "latitude": 37.0878729,
    "longitude": 136.9156761,
    "features": [
      "天然温泉"
    ],
    "spring_types": []
  },
  {
    "name": "次世代エネルギーパーク 木場潟公園東園地 足湯",
    "latitude": 36.3706853,
    "longitude": 136.4540177,
    "features": [
      "200台"
    ],
    "spring_types": []
  },
  {
    "name": "猿乃浄土の湯",
    "latitude": 36.2481068,
    "longitude": 136.7932751,
    "features": [
      "天然温泉"
    ],
    "spring_types": []
  },
  {
    "name": "岩間温泉 噴泉塔群",
    "latitude": 36.2132771,
    "longitude": 136.7156029,
    "features": [
      "天然温泉"
    ],
    "spring_types": []
  },
  {
    "name": "プライベートサウナ部 ととのう",
    "latitude": 36.55106749999999,
    "longitude": 136.6666422,
    "features": [
      "サウナ",
      "休憩所",
      "2台"
    ],
    "spring_types": []
  },
  {
    "name": "ko rin kyo 香林居",
    "latitude": 36.56189000000001,
    "longitude": 136.6544741,
    "features": [
      "露天",
      "サウナ",
      "休憩所"
    ],
    "spring_types": []
  },
  {
    "name": "FILL&",
    "latitude": 36.5291057,
    "longitude": 136.6138794,
    "features": [
      "サウナ",
      "休憩所",
      "食事処",
      "10台"
    ],
    "spring_types": []
  },
  {
    "name": "天然温泉 加賀の宝泉 御宿 野乃金沢",
    "latitude": 36.5699346,
    "longitude": 136.6548663,
    "features": [
      "天然温泉",
      "露天",
      "サウナ",
      "駐車場",
      "塩化"
    ],
    "spring_types": [
      "塩化"
    ]
  },
  {
    "name": "SAUNA HAKUSAN サウナはくさん",
    "latitude": 36.3474395,
    "longitude": 136.6756943,
    "features": [
      "サウナ",
      "駐車場"
    ],
    "spring_types": []
  },
  {
    "name": "神音Stay",
    "latitude": 36.8782102,
    "longitude": 136.8765393,
    "features": [
      "サウナ",
      "休憩所",
      "5台"
    ],
    "spring_types": []
  },
  {
    "name": "鶴来B&G海洋センター クレインプール",
    "latitude": 36.482765,
    "longitude": 136.5982494,
    "features": [
      "サウナ",
      "駐車場"
    ],
    "spring_types": []
  },
  {
    "name": "薬師の湯足湯",
    "latitude": 36.2582928,
    "longitude": 136.7646088,
    "features": [
      "天然温泉",
      "3台"
    ],
    "spring_types": []
  },
  {
    "name": "輪島KABULET 足湯",
    "latitude": 37.3938369,
    "longitude": 136.9071112,
    "features": [
      "天然温泉"
    ],
    "spring_types": []
  },
  {
    "name": "かよう亭",
    "latitude": 36.2522062,
    "longitude": 136.3785205,
    "features": [
      "天然温泉",
      "露天",
      "15台",
      "硫酸"
    ],
    "spring_types": [
      "硫酸"
    ]
  },
  {
    "name": "瀬々らぎの森 ラプティトゥポルト",
    "latitude": 36.32648650000001,
    "longitude": 136.4843982,
    "features": [
      "天然温泉",
      "食事処",
      "駐車場"
    ],
    "spring_types": []
  },
  {
    "name": "天然温泉加賀の湧泉 ドーミーイン金沢",
    "latitude": 36.5791349,
    "longitude": 136.6507838,
    "features": [
      "天然温泉",
      "露天",
      "サウナ",
      "休憩所",
      "70台",
      "塩化"
    ],
    "spring_types": [
      "塩化"
    ]
  },
  {
    "name": "HITOTSU NOTOJIMA 一 能登島（ひとつのとじま）",
    "latitude": 37.1057294,
    "longitude": 136.9790089,
    "features": [
      "サウナ",
      "休憩所",
      "駐車場"
    ],
    "spring_types": []
  },
  {
    "name": "新谷の湯 足湯",
    "latitude": 36.2481068,
    "longitude": 136.7932751,
    "features": [
      "天然温泉"
    ],
    "spring_types": []
  },
  {
    "name": "アパホテル 〈加賀大聖寺駅前〉",
    "latitude": 36.3008968,
    "longitude": 136.3145487,
    "features": [
      "駐車場"
    ],
    "spring_types": []
  },
  {
    "name": "河北亭",
    "latitude": 36.7714757,
    "longitude": 136.7210416,
    "features": [
      "食事処",
      "駐車場"
    ],
    "spring_types": []
  },
  {
    "name": "片山津温泉 季がさね",
    "latitude": 36.3459094,
    "longitude": 136.3662584,
    "features": [
      "天然温泉",
      "露天",
      "サウナ",
      "食事処",
      "40台",
      "塩化"
    ],
    "spring_types": [
      "塩化"
    ]
  },
  {
    "name": "アパホテル 〈小松〉",
    "latitude": 36.3998408,
    "longitude": 136.4500414,
    "features": [
      "駐車場"
    ],
    "spring_types": []
  },
  {
    "name": "アパホテル 〈金沢駅前〉",
    "latitude": 36.5776008,
    "longitude": 136.6466319,
    "features": [
      "露天",
      "サウナ",
      "駐車場"
    ],
    "spring_types": []
  },
  {
    "name": "ホテル金沢",
    "latitude": 36.5801344,
    "longitude": 136.6508428,
    "features": [
      "駐車場"
    ],
    "spring_types": []
  },
  {
    "name": "アパホテル 〈金沢西〉",
    "latitude": 36.571457,
    "longitude": 136.607275,
    "features": [
      "食事処",
      "駐車場"
    ],
    "spring_types": []
  },
  {
    "name": "スマイルホテル 金沢西口駅前",
    "latitude": 36.5805351,
    "longitude": 136.6448514,
    "features": [],
    "spring_types": []
  },
  {
    "name": "アパホテル 〈金沢野町〉",
    "latitude": 36.5161277,
    "longitude": 136.6263953,
    "features": [
      "駐車場"
    ],
    "spring_types": []
  },
  {
    "name": "ゲストルーム 心音ー金澤表参道ー",
    "latitude": 36.5739811,
    "longitude": 136.6556973,
    "features": [
      "食事処",
      "駐車場"
    ],
    "spring_types": []
  },
  {
    "name": "アパホテル 〈金沢片町〉",
    "latitude": 36.5574974,
    "longitude": 136.654375,
    "features": [
      "駐車場"
    ],
    "spring_types": []
  },
  {
    "name": "ホテルトレンド金沢片町",
    "latitude": 36.5592103,
    "longitude": 136.6530892,
    "features": [],
    "spring_types": []
  },
  {
    "name": "アパホテル 〈金沢片町〉EXCELLENT",
    "latitude": 36.5601778,
    "longitude": 136.6523282,
    "features": [
      "駐車場"
    ],
    "spring_types": []
  },
  {
    "name": "sauna LOHAS",
    "latitude": 36.5346558,
    "longitude": 136.6083175,
    "features": [
      "サウナ",
      "駐車場"
    ],
    "spring_types": []
  },
  {
    "name": "ウェルネスハウス SARAI",
    "latitude": 36.4398965,
    "longitude": 136.5077499,
    "features": [
      "84台"
    ],
    "spring_types": []
  },
  {
    "name": "七曲温泉 Onsen & Garden 七菜",
    "latitude": 36.5067441,
    "longitude": 136.7201272,
    "features": [
      "天然温泉",
      "露天",
      "食事処",
      "6台",
      "塩化"
    ],
    "spring_types": [
      "塩化"
    ]
  },
  {
    "name": "フィットネスクラブエイム クアハウスN9",
    "latitude": 36.43265280000001,
    "longitude": 136.5258359,
    "features": [
      "天然温泉",
      "露天",
      "サウナ",
      "休憩所",
      "駐車場"
    ],
    "spring_types": []
  },
  {
    "name": "珠洲ビーチホテル",
    "latitude": 37.4401793,
    "longitude": 137.326665,
    "features": [
      "駐車場"
    ],
    "spring_types": []
  },
  {
    "name": "白山市鶴来防災コミュニティセンター 鶴来ほうらい荘",
    "latitude": 36.4563554,
    "longitude": 136.6201018,
    "features": [
      "50台"
    ],
    "spring_types": []
  },
  {
    "name": "あたらしや くろサウナ",
    "latitude": 36.4897977,
    "longitude": 136.7565944,
    "features": [
      "サウナ",
      "駐車場"
    ],
    "spring_types": []
  },
  {
    "name": "コミセン 門前BASE",
    "latitude": 37.2863701,
    "longitude": 136.7437143,
    "features": [
      "食事処",
      "駐車場"
    ],
    "spring_types": []
  },
  {
    "name": "コミセン マリンタウンBASE",
    "latitude": 37.3938369,
    "longitude": 136.9071112,
    "features": [
      "食事処",
      "駐車場"
    ],
    "spring_types": []
  },
  {
    "name": "金沢トラックステーション",
    "latitude": 36.6073563,
    "longitude": 136.6702579,
    "features": [
      "食事処",
      "66台"
    ],
    "spring_types": []
  },
  {
    "name": "コミセン鳳至BASE",
    "latitude": 37.3958626,
    "longitude": 136.8955725,
    "features": [
      "食事処",
      "駐車場"
    ],
    "spring_types": []
  },
  {
    "name": "TAKIGAHARA SAUNA",
    "latitude": 36.2775295,
    "longitude": 136.4318181,
    "features": [
      "サウナ",
      "駐車場"
    ],
    "spring_types": []
  },
  {
    "name": "延命の湯",
    "latitude": 36.2588249,
    "longitude": 136.7642883,
    "features": [
      "天然温泉",
      "駐車場"
    ],
    "spring_types": []
  },
  {
    "name": "ピュア涌泉寺 足湯",
    "latitude": 36.3925455,
    "longitude": 136.5250249,
    "features": [
      "天然温泉",
      "100台"
    ],
    "spring_types": []
  }
]